[
  {
    "name": "LAMAREDA Étterem és Bisztró",
    "type_key": "etterem",
    "address": "9022 Győr, Apáca u. 4.",
    "phone": "+36 30 910-1099",
    "hours": "Hétfő–Vasárnap: 11:00-23:00",
    "description": "Magas színvonalú modern magyar bisztró, Michelin-ajánlott.",
    "maps_link": "https://maps.google.com/?q=Győr+Apáca+u.+4",
    "latitude": "47.6870",
    "longitude": "17.6380",
    "amenity_keys": []
  },
  {
    "name": "Westy Hajó Étterem & Pub",
    "type_key": "etterem",
    "address": "9022 Győr, Móricz Zsigmond rkp. 2",
    "phone": "+36 96 337-700",
    "hours": "Hétfő–Vasárnap: 11:30-23:00",
    "description": "Hangulatos hajó-étterem a Rába partján, családi és turistabarát hely.",
    "maps_link": "https://maps.google.com/?q=Győr+Móricz+Zsigmond+rkp.+2",
    "latitude": "47.6900",
    "longitude": "17.6270",
    "amenity_keys": []
  },
  {
    "name": "Palffy Restaurant",
    "type_key": "etterem",
    "address": "9022 Győr, Jedlik Ányos u. 19",
    "phone": null,
    "hours": "Minden nap: 09:00-23:00",
    "description": "Központi elhelyezkedésű étterem, térhez közel, nagy vendéglétszámra is.",
    "maps_link": "https://maps.google.com/?q=Győr+Jedlik+Ányos+u.+19",
    "latitude": "47.6865",
    "longitude": "17.6375",
    "amenity_keys": []
  },
  {
    "name": "Komédiás Étterem",
    "type_key": "etterem",
    "address": "9022 Győr, Czuczor Gergely u. 30",
    "phone": null,
    "hours": "Csütörtöktől–Szombatig: 11:00-24:00",
    "description": "Családias hangulatú, sok értékeléssel rendelkező étterem a belvárosban.",
    "maps_link": "https://maps.google.com/?q=Győr+Czuczor+Gergely+u.+30",
    "latitude": "47.6868",
    "longitude": "17.6360",
    "amenity_keys": []
  },
  {
    "name": "La Dolce Vita Ristorante – Étterem Pizzéria",
    "type_key": "etterem",
    "address": "9022 Győr, Schweidel u. 23.",
    "phone": null,
    "hours": "Kedd–Vasárnap: 11:00-15:00, 18:00-23:00",
    "description": "Olaszos pizzéria-étterem a belvárosban – könnyű választás családoknak.",
    "maps_link": "https://maps.google.com/?q=Győr+Schweidel+u.+23",
    "latitude": "47.6872",
    "longitude": "17.6383",
    "amenity_keys": []
  },
  {
    "name": "Tres Amigos Mexikói Étterem",
    "type_key": "etterem",
    "address": "9022 Győr, Liszt Ferenc u. 3",
    "phone": null,
    "hours": "Szombat: 12:00-22:00; Vasárnap: 12:00-16:00; egyéb napokon 16:00-22:00",
    "description": "Mexikói konyha Győrben, különleges választás azoknak, akik kipróbálnának mást.",
    "maps_link": "https://maps.google.com/?q=Győr+Liszt+Ferenc+u.+3",
    "latitude": "47.6850",
    "longitude": "17.6390",
    "amenity_keys": []
  },
  {
    "name": "Marcal Étterem",
    "type_key": "etterem",
    "address": "9024 Győr, Déry Tibor u. 11/A",
    "phone": null,
    "hours": "Hétköznap: 10:00-15:00",
    "description": "Családias hangulatú étterem kedvező áron.",
    "maps_link": "https://maps.google.com/?q=Győr+Déry+Tibor+u.+11/A",
    "latitude": "47.6940",
    "longitude": "17.6500",
    "amenity_keys": []
  },
  {
    "name": "Crystal Restaurant / Kristály Étterem",
    "type_key": "etterem",
    "address": "9023 Győr, Bartók Béla utca 9",
    "phone": null,
    "hours": "Szombat: 11:00-01:00, hétfőtől péntekig: 11:00-22:00",
    "description": "Kissé különlegesebb esti helyszín, bár családok is járnak.",
    "maps_link": "https://maps.google.com/?q=Győr+Bartók+Béla+utca+9",
    "latitude": "47.6825",
    "longitude": "17.6350",
    "amenity_keys": []
  },
  {
    "name": "Marha Jó Steak Bar",
    "type_key": "etterem",
    "address": "9022 Győr, Rákóczi Ferenc u. 9",
    "phone": null,
    "hours": "Mindennap 11:30-22:00",
    "description": "Steak-specialista hely Győr belvárosában – húsimádóknak ideális.",
    "maps_link": "https://maps.google.com/?q=Győr+Rákóczi+Ferenc+u.+9",
    "latitude": "47.6878",
    "longitude": "17.6379",
    "amenity_keys": []
  },
  {
    "name": "Zöldfa Étterem",
    "type_key": "etterem",
    "address": "9024 Győr, Hunyadi utca 2.",
    "phone": null,
    "hours": "Hétfőtől Keddig: 11:00-15:30; Szerda–Péntek: 11:00-21:00; Szombat: 11:00-24:00; Vasárnap: 11:00-15:00",
    "description": "Hangulatos, csendesebb utcai hely, jó választás étkezésre lazább tempóban.",
    "maps_link": "https://maps.google.com/?q=Győr+Hunyadi+utca+2",
    "latitude": "47.6930",
    "longitude": "17.6450",
    "amenity_keys": []
  },
  {
    "name": "Jasmine's Fagyizó és Kávézó",
    "type_key": "kavezo",
    "address": "9027 Győr, Nagysándor József u. 29.",
    "phone": null,
    "hours": null,
    "description": "Bababarát és gyerekbarát kávézó: kreatív programok, játék, tanulás, móka a gyermekeknek.",
    "maps_link": "https://maps.google.com/?q=Győr+Nagysándor+József+u.+29",
    "latitude": "47.69314",
    "longitude": "17.66056",
    "amenity_keys": ["jatszosarok"]
  },
  {
    "name": "A Kutya meg a Macska! Kézműves Kávébár",
    "type_key": "kavezo",
    "address": "9022 Győr, Pálffy u. 3-5",
    "phone": "+36 70 622-9477",
    "hours": "H–Sze: 8:30-20:00; Cs–P: 8:30-22:00; Szo:11:00-22:00; V: 11:00-20:00",
    "description": "Baba- és gyermekbarát kávézó: pelenkázó, gyereketkészlet, játékok várják a kicsiket.",
    "maps_link": "https://maps.google.com/?q=Győr+Pálffy+u.+3-5",
    "latitude": "47.6870",
    "longitude": "17.6380",
    "amenity_keys": ["pelenkazo", "jatszosarok"]
  },
  {
    "name": "Therápia Pékség és Kávézó",
    "type_key": "kavezo",
    "address": "9022 Győr, Pálffy u. 3.",
    "phone": null,
    "hours": null,
    "description": "A hely megfogalmazása szerint „gyerekbarát hely vagyunk\".",
    "maps_link": "https://maps.google.com/?q=Győr+Pálffy+u.+3",
    "latitude": "47.6870",
    "longitude": "17.6380",
    "amenity_keys": []
  },
  {
    "name": "Lipóti Pékség és Kávézó – ETO Park",
    "type_key": "kavezo",
    "address": "9024 Győr, Vasvári Pál u. 1",
    "phone": null,
    "hours": null,
    "description": "Kávézó-pékség, családok részére is kedvelt – említve gyerekhangulatú kávézónak a listákban.",
    "maps_link": "https://maps.google.com/?q=Győr+Vasvári+Pál+u.+1",
    "latitude": "47.6940",
    "longitude": "17.6500",
    "amenity_keys": []
  },
  {
    "name": "Édenkapu Kávézó & Fagyizó",
    "type_key": "kavezo",
    "address": "9026 Győr, Dunakapu tér 4",
    "phone": null,
    "hours": null,
    "description": "Gyermekbarát kávézó-fagyizó: a kicsik számára játszósarok is rendelkezésre áll.",
    "maps_link": "https://maps.google.com/?q=Győr+Dunakapu+tér+4",
    "latitude": "47.6860",
    "longitude": "17.6380",
    "amenity_keys": ["jatszosarok"]
  },
  {
    "name": "Galaxy Body & Fitness Centrum",
    "type_key": "edzoterem",
    "address": "9024 Győr, Kálvária u. 1-3",
    "phone": "+36 96 438-415",
    "hours": "Hétfő–Szombat: 06:00-23:00; Vasárnap: 12:00-23:00",
    "description": "Több mint 25 éve működő edzőterem Győrben; a Facebook-oldalon „Kölyökedzés! Konditermi kalandpark! … gyermekeknek és fiataloknak\" is szerepel.",
    "maps_link": "https://maps.google.com/?q=Győr+Kálvária+u.+1-3",
    "latitude": "47.6880",
    "longitude": "17.6390",
    "amenity_keys": []
  },
  {
    "name": "Butterfly Fitness & Rehab Stúdió",
    "type_key": "edzoterem",
    "address": "Győr/Abda (környék)",
    "phone": null,
    "hours": null,
    "description": "Kiskiscsoportos gyermek-tréningekkel („SZTM KIDS tréning és terápia … gyermekeknek\") is foglalkoznak.",
    "maps_link": null,
    "latitude": null,
    "longitude": null,
    "amenity_keys": []
  },
  {
    "name": "Golden Ball Club Fitness",
    "type_key": "edzoterem",
    "address": "9021 Győr, Szent István út 4",
    "phone": "+36 96 618-100",
    "hours": "Hétfőtől Vasárnapig: 7:00-22:00",
    "description": "Fitness terem részleg a szálloda-wellnessben; 14 éves korig „gyermek\" kategória is szerepel az áraknál.",
    "maps_link": "https://maps.google.com/?q=Győr+Szent+István+út+4",
    "latitude": "47.6885",
    "longitude": "17.6395",
    "amenity_keys": []
  },
  {
    "name": "Watt Fitness",
    "type_key": "edzoterem",
    "address": "Győr, (címet később pontosítok)",
    "phone": null,
    "hours": null,
    "description": "Olyan edzéseket is kínál, mint „Gyerektorna – Győr (WATT FITNESS)\", ami utal gyermek-barát szolgáltatásra is.",
    "maps_link": null,
    "latitude": null,
    "longitude": null,
    "amenity_keys": []
  },
  {
    "name": "GymTronic Győr",
    "type_key": "edzoterem",
    "address": "9028 Győr, Fehérvári út 10",
    "phone": "+36 96 998-350",
    "hours": null,
    "description": "Modern edzőterem, mely családias légkört említ „kortól és nemtől függetlenül\" a vendéglétszám látogatói között.",
    "maps_link": "https://maps.google.com/?q=Győr+Fehérvári+út+10",
    "latitude": "47.6790",
    "longitude": "17.6660",
    "amenity_keys": []
  }
]

